{"67341": {"@id": "node/410463793", "asset_ref": "67341", "bus": "yes", "highway": "bus_stop", "location": "Compassvale Drive", "name": "Opposite Blk 204 Carpark", "public_transport": "platform", "route_ref": "85;102;372;NR6", "lat": 1.3886931, "lon": 103.8950508}, "67171": {"@id": "node/410463794", "asset_ref": "67171", "bus": "yes", "highway": "bus_stop", "location": "Compassvale Drive", "name": "Blk 225A", "public_transport": "platform", "route_ref": "80;85;86;372;NR6", "lat": 1.3873166, "lon": 103.8989968}, "67349": {"@id": "node/410463795", "asset_ref": "67349", "bus": "yes", "highway": "bus_stop", "location": "Compassvale Drive", "name": "Blk 204 Carpark", "public_transport": "platform", "route_ref": "85;102;372", "lat": 1.3883745, "lon": 103.8952533}, "67179": {"@id": "node/410463796", "asset_ref": "67179", "bus": "yes", "highway": "bus_stop", "location": "Compassvale Drive", "name": "Opposite Blk 225A", "public_transport": "platform", "route_ref": "80;85;86", "lat": 1.3873658, "lon": 103.8980292}, "67189": {"@id": "node/410463797", "asset_ref": "67189", "bus": "yes", "highway": "bus_stop", "location": "Compassvale Road", "name": "Opposite Blk 241", "public_transport": "platform", "route_ref": "27;89;102;163;163M;371;965", "lat": 1.3906583, "lon": 103.8974107}, "67241": {"@id": "node/410463798", "asset_ref": "67241", "bus": "yes", "highway": "bus_stop", "location": "Compassvale Road", "name": "Blk 248A", "public_transport": "platform", "route_ref": "27;89;371;965", "lat": 1.3929464, "lon": 103.8985228}, "67249": {"@id": "node/410463799", "asset_ref": "67249", "bus": "yes", "highway": "bus_stop", "location": "Compassvale Road", "name": "Blk 259C", "public_transport": "platform", "route_ref": "27;89;371;965", "lat": 1.3937316, "lon": 103.8985534}, "67181": {"@id": "node/410463800", "asset_ref": "67181", "bus": "yes", "highway": "bus_stop", "location": "Compassvale Road", "name": "Blk 240", "public_transport": "platform", "route_ref": "27;89;102;156;159;372;965", "lat": 1.3909954, "lon": 103.8978118}, "67191": {"@id": "node/410463801", "asset_ref": "67191", "bus": "yes", "highway": "bus_stop", "location": "Compassvale Road", "name": "Blk 223D", "public_transport": "platform", "route_ref": "27;80;86;87;89;102;372", "lat": 1.3890419, "lon": 103.8971706}, "67201": {"@id": "node/410463802", "asset_ref": "67201", "bus": "yes", "highway": "bus_stop", "location": "Compassvale Road", "name": "Blk 206A", "public_transport": "platform", "route_ref": "27;87;89", "lat": 1.3867171, "lon": 103.8963385}, "67209": {"@id": "node/410463803", "asset_ref": "67209", "bus": "yes", "highway": "bus_stop", "location": "Compassvale Road", "name": "Blk 203", "public_transport": "platform", "route_ref": "27;87;89", "lat": 1.3869219, "lon": 103.8962023}, "67199": {"@id": "node/410463805", "asset_ref": "67199", "bus": "yes", "highway": "bus_stop", "location": "Compassvale Road", "name": "Opposite Blk 223D", "public_transport": "platform", "route_ref": "27;80;86;87;89;102", "lat": 1.3888803, "lon": 103.8968561}, "67431": {"@id": "node/410463806", "asset_ref": "67431", "bus": "yes", "highway": "bus_stop", "location": "Compassvale Street", "name": "Opposite Blk 291A", "public_transport": "platform", "route_ref": "83", "lat": 1.3952527, "lon": 103.8974189}, "67439": {"@id": "node/410463808", "asset_ref": "67439", "bus": "yes", "highway": "bus_stop", "location": "Compassvale Street", "name": "Blk 291A", "public_transport": "platform", "route_ref": "83", "lat": 1.3954981, "lon": 103.8973786}, "67259": {"@id": "node/410463812", "asset_ref": "67259", "bus": "yes", "highway": "bus_stop", "location": "Compassvale Street", "name": "Blk 297A", "public_transport": "platform", "route_ref": "27;83;89;371;965", "lat": 1.3946087, "lon": 103.9004644}, "67251": {"@id": "node/410463819", "asset_ref": "67251", "bus": "yes", "highway": "bus_stop", "location": "Compassvale Street", "name": "Blk 253", "public_transport": "platform", "route_ref": "27;83;89;371;965", "lat": 1.3944038, "lon": 103.9003923}, "65249": {"@id": "node/410464074", "asset_ref": "65249", "bus": "yes", "highway": "bus_stop", "location": "Edgefield Plains", "name": "Blk 178", "public_transport": "platform", "route_ref": "136", "lat": 1.3995595, "lon": 103.9082822}, "65241": {"@id": "node/410464088", "asset_ref": "65241", "bus": "yes", "highway": "bus_stop", "location": "Edgefield Plains", "name": "Blk 196C", "public_transport": "platform", "route_ref": "136", "lat": 1.3990941, "lon": 103.9076522}, "65279": {"@id": "node/410472369", "asset_ref": "65279", "bus": "yes", "highway": "bus_stop", "location": "Punggol Central", "name": "Between Blks 187/188", "public_transport": "platform", "route_ref": "3;6N;83;85", "lat": 1.3993093, "lon": 103.9109875}, "65229": {"@id": "node/410472372", "asset_ref": "65229", "bus": "yes", "highway": "bus_stop", "location": "Punggol Central", "name": "Blk 298", "public_transport": "platform", "route_ref": "3;6N;34;83;84;85;136;386", "lat": 1.4032091, "lon": 103.9055521}, "65271": {"@id": "node/410472373", "asset_ref": "65271", "bus": "yes", "highway": "bus_stop", "location": "Punggol Central", "name": "Opposite Blk 188", "public_transport": "platform", "route_ref": "3;83;85", "lat": 1.3999807, "lon": 103.9106464}, "65289": {"@id": "node/410472374", "asset_ref": "65289", "bus": "yes", "highway": "bus_stop", "location": "Punggol Central", "name": "Edgefield Primary School", "public_transport": "platform", "route_ref": "3;6N;83;85;136;386", "wheelchair": "no", "lat": 1.401732, "lon": 103.907635}, "65261": {"@id": "node/410472375", "asset_ref": "65261", "bus": "yes", "highway": "bus_stop", "location": "Punggol Central", "name": "Blk 649", "public_transport": "platform", "route_ref": "3;83;85", "lat": 1.3971462, "lon": 103.9146038}, "65221": {"@id": "node/410472376", "asset_ref": "65221", "bus": "yes", "highway": "bus_stop", "location": "Punggol Central", "name": "Blk 303D", "public_transport": "platform", "route_ref": "3;34;34A;83;84;85;136;386", "lat": 1.4040774, "lon": 103.9048174}, "65281": {"@id": "node/410472377", "asset_ref": "65281", "bus": "yes", "highway": "bus_stop", "location": "Punggol Central", "name": "Punggol Secondary School", "public_transport": "platform", "route_ref": "3;83;85;136;386", "lat": 1.401923, "lon": 103.907859}, "65269": {"@id": "node/410472378", "asset_ref": "65269", "bus": "yes", "highway": "bus_stop", "location": "Punggol Central", "name": "Blk 162B", "public_transport": "platform", "route_ref": "3;6N;83;386", "lat": 1.3964771, "lon": 103.9149239}, "65231": {"@id": "node/410472379", "asset_ref": "65231", "bus": "yes", "highway": "bus_stop", "location": "Punggol East", "name": "Riviera Stn Exit B", "public_transport": "platform", "route_ref": "3;6N;50;83;85;386", "lat": 1.39429, "lon": 103.915795}, "65239": {"@id": "node/410472380", "asset_ref": "65239", "bus": "yes", "highway": "bus_stop", "location": "Punggol East", "name": "Riviera Stn Exit A", "public_transport": "platform", "route_ref": "3;50;83;85", "lat": 1.3942075, "lon": 103.916123}, "65201": {"@id": "node/410472381", "asset_ref": "65201", "bus": "yes", "highway": "bus_stop", "location": "Punggol Field", "name": "Opposite Blk 201A", "public_transport": "platform", "route_ref": "6N;62;62A;82", "lat": 1.4008806, "lon": 103.9035672}, "65159": {"@id": "node/410472382", "asset_ref": "65159", "bus": "yes", "highway": "bus_stop", "location": "Punggol Field", "name": "Cove Stn Exit A", "public_transport": "platform", "route_ref": "3;62;83;136", "lat": 1.3990411, "lon": 103.9061631}, "65169": {"@id": "node/410472383", "asset_ref": "65169", "bus": "yes", "highway": "bus_stop", "location": "Punggol Field", "name": "Meridian Stn Exit A", "public_transport": "platform", "route_ref": "3;62;83", "lat": 1.3958293, "lon": 103.910029}, "65151": {"@id": "node/410472387", "asset_ref": "65151", "bus": "yes", "highway": "bus_stop", "location": "Punggol Field", "name": "Cove Stn Exit B", "public_transport": "platform", "route_ref": "3;6N;62;62A;83;136", "lat": 1.3991335, "lon": 103.9065501}, "65179": {"@id": "node/410472392", "asset_ref": "65179", "bus": "yes", "highway": "bus_stop", "location": "Punggol Field", "name": "Coral Edge Stn Exit A", "public_transport": "platform", "route_ref": "3;62;83", "lat": 1.3942822, "lon": 103.9118997}, "65171": {"@id": "node/410472393", "asset_ref": "65171", "bus": "yes", "highway": "bus_stop", "location": "Punggol Field", "name": "Coral Edge Stn Exit B", "public_transport": "platform", "route_ref": "3;6N;62;62A;83;386", "lat": 1.3944344, "lon": 103.9122461}, "65161": {"@id": "node/410472394", "asset_ref": "65161", "bus": "yes", "highway": "bus_stop", "location": "Punggol Field", "name": "Meridian Stn Exit B", "public_transport": "platform", "route_ref": "3;6N;62;62A;83", "lat": 1.3963978, "lon": 103.9098666}, "65209": {"@id": "node/410472395", "asset_ref": "65209", "highway": "bus_stop", "location": "Punggol Field", "name": "After Punggol Road", "route_ref": "62;82", "lat": 1.4003315, "lon": 103.9038676}, "65219": {"@id": "node/410472396", "asset_ref": "65219", "bus": "yes", "highway": "bus_stop", "location": "Punggol Place", "name": "After Punggol Central", "public_transport": "platform", "route_ref": "6N", "lat": 1.4033115, "lon": 103.9033256}, "65211": {"@id": "node/410472397", "asset_ref": "65211", "highway": "bus_stop", "location": "Punggol Place", "name": "After Punggol Field", "lat": 1.4024963, "lon": 103.9024931}, "65029": {"@id": "node/410472398", "asset_ref": "65029", "bus": "yes", "highway": "bus_stop", "location": "Punggol Road", "name": "Blk 111", "public_transport": "platform", "route_ref": "80;82;88;163;163M", "lat": 1.3845201, "lon": 103.900589}, "65031": {"@id": "node/410472399", "asset_ref": "65031", "bus": "yes", "highway": "bus_stop", "location": "Punggol Road", "name": "Blk 227D", "public_transport": "platform", "route_ref": "6N;82;88;163;163M;372", "lat": 1.3870722, "lon": 103.9016518}, "65069": {"@id": "node/410472400", "asset_ref": "65069", "bus": "yes", "highway": "bus_stop", "location": "Punggol Road", "name": "Blk 190C", "public_transport": "platform", "route_ref": "27;82;83;86;88;89;136;161;965", "lat": 1.3950153, "lon": 103.9024116}, "65039": {"@id": "node/410472401", "asset_ref": "65039", "bus": "yes", "highway": "bus_stop", "location": "Punggol Road", "name": "Blk 124", "public_transport": "platform", "route_ref": "82;88;163;163M", "lat": 1.387219, "lon": 103.9019659}, "65071": {"@id": "node/410472402", "asset_ref": "65071", "bus": "yes", "highway": "bus_stop", "location": "Punggol Road", "name": "Opposite Blk 103A", "public_transport": "platform", "route_ref": "3;6N;34;82;83;136", "lat": 1.3984929, "lon": 103.9041539}, "65689": {"@id": "node/410472408", "asset_ref": "65689", "bus": "yes", "highway": "bus_stop", "location": "Punggol Road", "name": "After Northshore Crescent", "public_transport": "platform", "route_ref": "84", "lat": 1.4183947, "lon": 103.9080477}, "65061": {"@id": "node/410472411", "asset_ref": "65061", "bus": "yes", "highway": "bus_stop", "location": "Punggol Road", "name": "Blk 298A", "public_transport": "platform", "route_ref": "6N;27;82;83;86;88;89;136;161;965", "lat": 1.3949235, "lon": 103.9019551}, "65019": {"@id": "node/410472413", "asset_ref": "65019", "bench": "yes", "highway": "bus_stop", "location": "Punggol Road", "name": "The Rivervale", "route_ref": "80;82;87;88;89;119", "shelter": "yes", "lat": 1.3814731, "lon": 103.897462}, "65081": {"@id": "node/410472414", "asset_ref": "65081", "highway": "bus_stop", "location": "Punggol Road", "name": "Opposite Blk 199C", "route_ref": "34", "lat": 1.4009585, "lon": 103.9052968}, "65101": {"@id": "node/410472422", "asset_ref": "65101", "highway": "bus_stop", "location": "Punggol Road", "name": "After Punggol Drive", "route_ref": "84", "lat": 1.4079321, "lon": 103.9087263}, "65079": {"@id": "node/410472469", "asset_ref": "65079", "bus": "yes", "highway": "bus_stop", "location": "Punggol Road", "name": "Blk 102C", "public_transport": "platform", "route_ref": "3;34;34A;82;83;136", "lat": 1.3988936, "lon": 103.9047796}, "65091": {"@id": "node/410472478", "asset_ref": "65091", "highway": "bus_stop", "location": "Punggol Road", "name": "Blk 301A", "route_ref": "84", "lat": 1.4040152, "lon": 103.9065771}, "65011": {"@id": "node/410472480", "asset_ref": "65011", "bench": "yes", "highway": "bus_stop", "location": "Punggol Road", "name": "Opposite The Rivervale", "route_ref": "80;82;87;88;89;119;NR6", "shelter": "yes", "wheelchair": "yes", "lat": 1.3815936, "lon": 103.8972299}, "65109": {"@id": "node/410472511", "asset_ref": "65109", "highway": "bus_stop", "location": "Punggol Road", "name": "Before Punggol Drive", "route_ref": "84", "lat": 1.4076358, "lon": 103.9088633}, "65021": {"@id": "node/410472574", "asset_ref": "65021", "bus": "yes", "highway": "bus_stop", "location": "Punggol Road", "name": "Opposite Blk 110", "public_transport": "platform", "route_ref": "6N;80;82;88;163;163M", "lat": 1.3840061, "lon": 103.8995778}, "65089": {"@id": "node/410472575", "asset_ref": "65089", "bus": "yes", "highway": "bus_stop", "location": "Punggol Road", "name": "Opposite Blk 296", "public_transport": "platform", "route_ref": "34;34A", "lat": 1.4013487, "lon": 103.9058481}, "67231": {"@id": "node/410473634", "asset_ref": "67231", "bus": "yes", "highway": "bus_stop", "location": "Rivervale Drive", "name": "Rivervale Primary School", "public_transport": "platform", "route_ref": "86;371", "lat": 1.3932664, "lon": 103.9039489}, "67159": {"@id": "node/410473638", "asset_ref": "67159", "bus": "yes", "highway": "bus_stop", "location": "Rivervale Drive", "name": "Blk 112", "public_transport": "platform", "route_ref": "119;136;NR6", "lat": 1.3843319, "lon": 103.9022733}, "67131": {"@id": "node/410473661", "asset_ref": "67131", "bus": "yes", "highway": "bus_stop", "location": "Rivervale Drive", "name": "Blk 122F", "public_transport": "platform", "route_ref": "85;86;119;136", "lat": 1.3877304, "lon": 103.905365}, "67221": {"@id": "node/410473663", "asset_ref": "67221", "bus": "yes", "highway": "bus_stop", "location": "Rivervale Drive", "name": "Blk 153", "public_transport": "platform", "route_ref": "86;371", "lat": 1.3913409, "lon": 103.9062552}, "67139": {"@id": "node/410473664", "asset_ref": "67139", "bus": "yes", "highway": "bus_stop", "location": "Rivervale Drive", "name": "Opposite Blk 121", "public_transport": "platform", "route_ref": "85;86;119;136;NR6", "lat": 1.3871308, "lon": 103.9041517}, "67141": {"@id": "node/410473665", "asset_ref": "67141", "bus": "yes", "highway": "bus_stop", "location": "Rivervale Drive", "name": "Blk 119D", "public_transport": "platform", "route_ref": "85;86;119;136", "lat": 1.3860045, "lon": 103.9035893}, "67239": {"@id": "node/410473666", "asset_ref": "67239", "bus": "yes", "highway": "bus_stop", "location": "Rivervale Drive", "name": "Opposite Rivervale Primary School", "public_transport": "platform", "route_ref": "86;371", "lat": 1.3930419, "lon": 103.9037592}, "67151": {"@id": "node/410473667", "asset_ref": "67151", "bus": "yes", "highway": "bus_stop", "location": "Rivervale Drive", "name": "Blk 117A", "public_transport": "platform", "route_ref": "119;136", "lat": 1.3835346, "lon": 103.9022099}, "67229": {"@id": "node/410473668", "asset_ref": "67229", "bus": "yes", "highway": "bus_stop", "location": "Rivervale Drive", "name": "Blk 146A", "public_transport": "platform", "route_ref": "86", "lat": 1.3910985, "lon": 103.9061155}, "67219": {"@id": "node/410473921", "asset_ref": "67219", "bus": "yes", "highway": "bus_stop", "location": "Sengkang East Avenue", "name": "Ranggung Station Exit B", "public_transport": "platform", "route_ref": "87;89;163;163M", "shelter": "yes", "lat": 1.3836844, "lon": 103.8975133}, "67261": {"@id": "node/410473924", "asset_ref": "67261", "bus": "yes", "highway": "bus_stop", "location": "Sengkang East Avenue", "name": "Blk 203B", "public_transport": "platform", "route_ref": "27;163;163M", "lat": 1.3865912, "lon": 103.8946493}, "67169": {"@id": "node/410473925", "asset_ref": "67169", "bus": "yes", "highway": "bus_stop", "location": "Sengkang East Avenue", "name": "Blk 101", "public_transport": "platform", "route_ref": "119;NR6", "lat": 1.3825178, "lon": 103.8992281}, "67161": {"@id": "node/410473939", "asset_ref": "67161", "bus": "yes", "highway": "bus_stop", "location": "Sengkang East Avenue", "name": "Opposite Blk 101", "public_transport": "platform", "route_ref": "6N;119", "lat": 1.38209, "lon": 103.899284}, "67269": {"@id": "node/410474051", "asset_ref": "67269", "bus": "yes", "highway": "bus_stop", "location": "Sengkang East Avenue", "name": "Opposite Blk 203A", "public_transport": "platform", "route_ref": "27;163;163M", "lat": 1.3860206, "lon": 103.8951479}, "67211": {"@id": "node/410474077", "asset_ref": "67211", "bus": "yes", "highway": "bus_stop", "location": "Sengkang East Avenue", "name": "Ranggung Station Exit A", "public_transport": "platform", "route_ref": "87;89;163;163M", "shelter": "yes", "lat": 1.3838667, "lon": 103.8977433}, "67511": {"@id": "node/410474107", "asset_ref": "67511", "highway": "bus_stop", "location": "Sengkang East Drive", "name": "Blk 121E", "route_ref": "62", "lat": 1.3859988, "lon": 103.906263}, "67519": {"@id": "node/410474131", "asset_ref": "67519", "bus": "yes", "highway": "bus_stop", "location": "Sengkang East Drive", "name": "Opposite Blk 121E", "public_transport": "platform", "route_ref": "62;62A", "lat": 1.385683, "lon": 103.9063499}, "67521": {"@id": "node/410474183", "asset_ref": "67521", "bus": "yes", "highway": "bus_stop", "location": "Sengkang East Drive", "name": "Blk 160", "public_transport": "platform", "route_ref": "50;62;85", "lat": 1.3871571, "lon": 103.908377}, "67509": {"@id": "node/410474210", "asset_ref": "67509", "bus": "yes", "highway": "bus_stop", "location": "Sengkang East Drive", "name": "Opposite Blk 119A", "public_transport": "platform", "route_ref": "62;62A", "lat": 1.3841552, "lon": 103.9043024}, "67529": {"@id": "node/410474236", "asset_ref": "67529", "bus": "yes", "highway": "bus_stop", "location": "Sengkang East Drive", "name": "Opposite Blk 157A", "public_transport": "platform", "route_ref": "50;62;62A;85", "lat": 1.387304, "lon": 103.9092674}, "67441": {"@id": "node/410474348", "asset_ref": "67441", "bus": "yes", "highway": "bus_stop", "location": "Sengkang East Road", "name": "Sengkang Community Hub", "public_transport": "platform", "route_ref": "43;43M;83;85;109;156;159;161;372;374", "lat": 1.3922935, "lon": 103.8935043}, "67449": {"@id": "node/410474384", "asset_ref": "67449", "bus": "yes", "highway": "bus_stop", "location": "Sengkang East Road", "name": "Blk 323B", "public_transport": "platform", "route_ref": "43;43M;83;85;109;156;159;161", "lat": 1.392108, "lon": 103.893101}, "67419": {"@id": "node/410474619", "asset_ref": "67419", "bus": "yes", "highway": "bus_stop", "location": "Sengkang East Road", "name": "Opposite Blk 261", "public_transport": "platform", "route_ref": "43;43M;83;109;119;374", "lat": 1.3944463, "lon": 103.8938455}, "67411": {"@id": "node/410474760", "asset_ref": "67411", "highway": "bus_stop", "location": "Sengkang East Road", "name": "Blk 261", "route_ref": "43;43M;83;109;119;374", "lat": 1.3948041, "lon": 103.8943345}, "67119": {"@id": "node/410474796", "asset_ref": "67119", "bus": "yes", "highway": "bus_stop", "location": "Sengkang East Way", "name": "Blk 128", "public_transport": "platform", "route_ref": "50;119;136;NR6", "lat": 1.3904816, "lon": 103.9031094}, "67401": {"@id": "node/410474853", "asset_ref": "67401", "bus": "yes", "highway": "bus_stop", "location": "Sengkang East Way", "name": "Opposite Sengkang Station/Block 260A", "public_transport": "platform", "route_ref": "50;102;119;156;159;161", "lat": 1.3929399, "lon": 103.8953082}, "67129": {"@id": "node/410474892", "asset_ref": "67129", "bus": "yes", "highway": "bus_stop", "location": "Sengkang East Way", "name": "Blk 137", "public_transport": "platform", "route_ref": "50;119;136;NR6", "lat": 1.3892955, "lon": 103.905057}, "67101": {"@id": "node/410474919", "asset_ref": "67101", "bus": "yes", "highway": "bus_stop", "location": "Sengkang East Way", "name": "Blk 250A", "public_transport": "platform", "route_ref": "50;119;161;163;163M", "lat": 1.3914089, "lon": 103.8996087}, "67121": {"@id": "node/410474950", "asset_ref": "67121", "bus": "yes", "highway": "bus_stop", "location": "Sengkang East Way", "name": "Blk 142A", "public_transport": "platform", "route_ref": "50;119;136", "lat": 1.3894832, "lon": 103.9052209}, "67109": {"@id": "node/410474967", "asset_ref": "67109", "bus": "yes", "highway": "bus_stop", "location": "Sengkang East Way", "name": "Blk 235", "public_transport": "platform", "route_ref": "50;119;161;163;163M;372;NR6", "lat": 1.3909507, "lon": 103.9000202}, "67009": {"@id": "node/410475011", "amenity": "bus_station", "asset_ref": "67009", "bus": "yes", "highway": "bus_stop", "location": "Sengkang Square", "name": "Sengkang Interchange", "public_transport": "platform", "route_ref": "80;83;86;87;156;159;163;163M;371;372;965", "wheelchair": "yes", "lat": 1.3915168, "lon": 103.8961049}, "65009": {"@id": "node/1847853709", "amenity": "bus_station", "asset_ref": "65009", "bus": "yes", "highway": "bus_stop", "location": "Punggol Place", "name": "Punggol Temporary Interchange", "public_transport": "platform", "route_ref": "3;34;34A;43;43M;50;62;62A;82;83;84;85;117;118;119;136;382G;382W;386", "lat": 1.404107, "lon": 103.9025242}, "67609": {"@id": "node/1848076678", "asset_ref": "67609", "highway": "bus_stop", "location": "Sengkang Central", "name": "Buangkok Station Exit A", "route_ref": "27;43;43M;102", "shelter": "yes", "lat": 1.3838645, "lon": 103.8930538}, "67619": {"@id": "node/1849631267", "asset_ref": "67619", "bus": "yes", "highway": "bus_stop", "location": "Sengkang Central", "name": "Blk 201C", "public_transport": "platform", "route_ref": "43;43M;102", "lat": 1.3878635, "lon": 103.8940241}, "67611": {"@id": "node/1849631269", "asset_ref": "67611", "bus": "yes", "highway": "bus_stop", "location": "Sengkang Central", "name": "Blk 204C", "public_transport": "platform", "route_ref": "43;43M;102", "lat": 1.3877918, "lon": 103.8942778}, "65141": {"@id": "node/1849631331", "asset_ref": "65141", "bus": "yes", "highway": "bus_stop", "location": "Punggol Way", "name": "Soo Teck Station", "public_transport": "platform", "route_ref": "43;43M;117;118", "lat": 1.4053356, "lon": 103.8974167}, "65149": {"@id": "node/1849631343", "asset_ref": "65149", "bus": "yes", "highway": "bus_stop", "location": "Punggol Way", "name": "Soo Teck Station", "public_transport": "platform", "route_ref": "43;43M;117;118", "lat": 1.4052507, "lon": 103.89706}, "67409": {"@id": "node/1854311907", "asset_ref": "67409", "bus": "yes", "highway": "bus_stop", "location": "Sengkang East Way", "name": "Sengkang Station", "public_transport": "platform", "route_ref": "50;102;119;156;159;161;372;374;NR6", "lat": 1.3923548, "lon": 103.896108}, "65059": {"@id": "node/1854311912", "asset_ref": "65059", "bus": "yes", "highway": "bus_stop", "location": "Punggol Road", "name": "Saint Anne's Church", "public_transport": "platform", "route_ref": "82;88;136;161", "lat": 1.3930687, "lon": 103.9013398}, "67111": {"@id": "node/1854311926", "asset_ref": "67111", "bus": "yes", "highway": "bus_stop", "location": "Sengkang East Way", "name": "CHIJ Saint Joseph's Convent", "public_transport": "platform", "route_ref": "50;119;136", "lat": 1.3910779, "lon": 103.9023686}, "67539": {"@id": "node/1855320981", "asset_ref": "67539", "bus": "yes", "highway": "bus_stop", "location": "Sengkang East Way", "name": "Blk 122C", "public_transport": "platform", "route_ref": "50;85", "lat": 1.3876827, "lon": 103.906639}, "67531": {"@id": "node/1855320982", "asset_ref": "67531", "bus": "yes", "highway": "bus_stop", "location": "Sengkang East Way", "name": "Blk 158C", "public_transport": "platform", "route_ref": "50;85", "lat": 1.3878736, "lon": 103.9067996}, "65099": {"@id": "node/1855320985", "asset_ref": "65099", "highway": "bus_stop", "location": "Punggol Road", "name": "Blk 604A", "route_ref": "84", "lat": 1.404533, "lon": 103.9071851}, "65359": {"@id": "node/2077636382", "asset_ref": "65359", "bus": "yes", "highway": "bus_stop", "location": "Punggol Place", "name": "Opposite Punggol View Primary School", "public_transport": "platform", "route_ref": "50;382W", "lat": 1.4055431, "lon": 103.9043482}, "65351": {"@id": "node/2077636384", "asset_ref": "65351", "bus": "yes", "highway": "bus_stop", "location": "Punggol Place", "name": "Punggol View Primary School", "public_transport": "platform", "route_ref": "50;382G", "lat": 1.4059238, "lon": 103.9048756}, "65339": {"@id": "node/2085845866", "asset_ref": "65339", "bus": "yes", "highway": "bus_stop", "location": "Punggol Field", "name": "Blk 268C", "public_transport": "platform", "route_ref": "119;382W", "lat": 1.4031893, "lon": 103.8981118}, "65349": {"@id": "node/2085845871", "asset_ref": "65349", "bus": "yes", "highway": "bus_stop", "location": "Punggol Field", "name": "Blk 272C", "public_transport": "platform", "route_ref": "119;382W", "lat": 1.4022889, "lon": 103.9006432}, "65331": {"@id": "node/2085845879", "asset_ref": "65331", "bus": "yes", "highway": "bus_stop", "location": "Punggol Field", "name": "Opposite Blk 268D", "public_transport": "platform", "route_ref": "119;382G", "lat": 1.4026665, "lon": 103.8986331}, "65341": {"@id": "node/2085845884", "asset_ref": "65341", "bus": "yes", "highway": "bus_stop", "location": "Punggol Field", "name": "Opposite Blk 272C", "public_transport": "platform", "route_ref": "119;382G", "lat": 1.4017647, "lon": 103.900933}, "65181": {"@id": "node/2110621964", "asset_ref": "65181", "bus": "yes", "highway": "bus_stop", "location": "Punggol East", "name": "Atf Punggol Central", "public_transport": "platform", "route_ref": "50", "lat": 1.3968139, "lon": 103.91755}, "65189": {"@id": "node/2110621969", "asset_ref": "65189", "bus": "yes", "highway": "bus_stop", "location": "Punggol East", "name": "Before Punggol Central", "public_transport": "platform", "route_ref": "50", "lat": 1.396827, "lon": 103.91793}, "65301": {"@id": "node/2110621974", "asset_ref": "65301", "bus": "yes", "highway": "bus_stop", "location": "Punggol Drive", "name": "Damai Stn Exit B", "public_transport": "platform", "route_ref": "50", "lat": 1.4045163, "lon": 103.909287}, "65321": {"@id": "node/2110621985", "asset_ref": "65321", "bus": "yes", "highway": "bus_stop", "location": "Punggol Drive", "name": "Kadaloor Stn Exit B", "public_transport": "platform", "route_ref": "50", "lat": 1.3993112, "lon": 103.9166662}, "65329": {"@id": "node/2110621991", "asset_ref": "65329", "bus": "yes", "highway": "bus_stop", "location": "Punggol Drive", "name": "Kadaloor Stn Exit A", "public_transport": "platform", "route_ref": "50", "lat": 1.3999112, "lon": 103.9162493}, "65311": {"@id": "node/2110621997", "asset_ref": "65311", "bus": "yes", "highway": "bus_stop", "location": "Punggol Drive", "name": "Oasis Station Exit B/Block 617D", "public_transport": "platform", "route_ref": "50;386", "lat": 1.4021461, "lon": 103.9127005}, "65319": {"@id": "node/2110622011", "asset_ref": "65319", "bus": "yes", "highway": "bus_stop", "location": "Punggol Drive", "name": "Oasis Station Exit A", "public_transport": "platform", "route_ref": "50;386", "lat": 1.402466, "lon": 103.9127387}, "65309": {"@id": "node/2110622025", "asset_ref": "65309", "bus": "yes", "highway": "bus_stop", "location": "Punggol Drive", "name": "Damai Stn Exit A", "public_transport": "platform", "route_ref": "50", "lat": 1.404944, "lon": 103.909134}, "67601": {"@id": "node/2429952037", "asset_ref": "67601", "bus": "yes", "highway": "bus_stop", "location": "Sengkang Central", "name": "Buangkok Station Exit B", "public_transport": "platform", "route_ref": "27;43;43M;102", "shelter": "yes", "lat": 1.3833905, "lon": 103.8932448}, "67671": {"@id": "node/2632231133", "asset_ref": "67671", "highway": "bus_stop", "location": "Rivervale Crescent", "name": "Blk 156A Carpark", "route_ref": "371", "lat": 1.3919417, "lon": 103.9070973}, "67661": {"@id": "node/2632231140", "asset_ref": "67661", "highway": "bus_stop", "location": "Rivervale Crescent", "name": "Opposite Blk 178A", "route_ref": "371", "lat": 1.3893456, "lon": 103.9092102}, "67429": {"@id": "node/2708140029", "asset_ref": "67429", "bus": "yes", "highway": "bus_stop", "location": "Anchorvale Street", "name": "Cheng Lim LRT", "public_transport": "platform", "route_ref": "NoServices", "lat": 1.3964243, "lon": 103.8937623}, "67421": {"@id": "node/2708140033", "asset_ref": "67421", "bus": "yes", "highway": "bus_stop", "location": "Anchorvale Street", "name": "Opposite Cheng Lim LRT", "public_transport": "platform", "route_ref": "NoServices", "lat": 1.3961984, "lon": 103.8937158}, "65399": {"@id": "node/3316956185", "asset_ref": "65399", "highway": "bus_stop", "location": "Edgefield Plains", "name": "Blk 670A", "route_ref": "386", "lat": 1.4058029, "lon": 103.9126284}, "65391": {"@id": "node/3316956186", "asset_ref": "65391", "highway": "bus_stop", "location": "Edgefield Plains", "name": "Blk 672A", "route_ref": "386", "lat": 1.4059501, "lon": 103.9124459}, "65389": {"@id": "node/3316956194", "asset_ref": "65389", "highway": "bus_stop", "location": "Edgefield Plains", "name": "Opposite Punggol Secondary School", "route_ref": "386", "lat": 1.4022258, "lon": 103.9101159}, "65381": {"@id": "node/3316956195", "asset_ref": "65381", "highway": "bus_stop", "location": "Edgefield Plains", "name": "Punggol Secondary School", "route_ref": "386", "lat": 1.4021363, "lon": 103.9097855}, "65199": {"@id": "node/3553028926", "asset_ref": "65199", "bus": "yes", "highway": "bus_stop", "location": "Tampines Expressway", "name": "After Punggol Road", "public_transport": "platform", "route_ref": "3;27;34;34A;39;88;89;109;118;168;858;969", "lat": 1.3959978, "lon": 103.9055001}, "65191": {"@id": "node/3553028927", "asset_ref": "65191", "bus": "yes", "highway": "bus_stop", "location": "Tampines Expressway", "name": "Before Punggol Road", "public_transport": "platform", "route_ref": "3;27;34;39;88;89;109;118;168;858;969", "lat": 1.3952405, "lon": 103.9051626}, "65431": {"@id": "node/3737148763", "asset_ref": "65431", "bench": "yes", "bus": "yes", "highway": "bus_stop", "location": "Punggol Way", "name": "Twin Waterfalls", "public_transport": "platform", "route_ref": "43;43M;117;118;119", "shelter": "yes", "lat": 1.4024184, "lon": 103.8967454}, "65439": {"@id": "node/3737158812", "asset_ref": "65439", "bench": "yes", "bus": "yes", "highway": "bus_stop", "location": "Punggol Way", "name": "After Tampines Expressway", "public_transport": "platform", "route_ref": "43;43M;117;118;119", "shelter": "yes", "lat": 1.4017197, "lon": 103.8963115}, "65409": {"@id": "node/3865151058", "asset_ref": "65409", "bus": "yes", "highway": "bus_stop", "location": "Punggol Central", "name": "Before Blk 264", "public_transport": "platform", "route_ref": "43;43M;117;118", "lat": 1.406245, "lon": 103.899574}, "65429": {"@id": "node/3865151063", "asset_ref": "65429", "highway": "bus_stop", "location": "Edgefield Plains", "name": "Greendale Primary School", "route_ref": "386", "lat": 1.3967443, "lon": 103.9120865}, "65411": {"@id": "node/3865151064", "asset_ref": "65411", "highway": "bus_stop", "location": "Edgefield Plains", "name": "Horizon Primary School", "route_ref": "386", "lat": 1.3994654, "lon": 103.9138187}, "65401": {"@id": "node/3865151068", "asset_ref": "65401", "bus": "yes", "highway": "bus_stop", "location": "Punggol Central", "name": "Opposite Blk 264A", "public_transport": "platform", "route_ref": "43;43M;117;118", "lat": 1.4065689, "lon": 103.89871}, "65419": {"@id": "node/3865151071", "asset_ref": "65419", "highway": "bus_stop", "location": "Edgefield Plains", "name": "Opposite Horizon Primary School", "route_ref": "386", "lat": 1.3994396, "lon": 103.9139912}, "65491": {"@id": "node/3905787876", "asset_ref": "65491", "bench": "yes", "bus": "yes", "highway": "bus_stop", "location": "Sumang Walk", "name": "Opposite Blk 259 Carpark", "public_transport": "platform", "route_ref": "382G", "shelter": "yes", "lat": 1.4045728, "lon": 103.8948119}, "65499": {"@id": "node/6780513249", "asset_ref": "65499", "bench": "yes", "bus": "yes", "highway": "bus_stop", "location": "Sumang Walk", "name": "Blk 258A", "public_transport": "platform", "route_ref": "382W", "shelter": "yes", "lat": 1.4035623, "lon": 103.8959034}, "65441": {"@id": "node/3905787878", "asset_ref": "65441", "bench": "yes", "bus": "yes", "highway": "bus_stop", "location": "Sumang Walk", "name": "Opposite Blk 315B", "public_transport": "platform", "route_ref": "382G", "shelter": "yes", "lat": 1.4081914, "lon": 103.8957547}, "65449": {"@id": "node/3905787879", "asset_ref": "65449", "bus": "yes", "highway": "bus_stop", "location": "Sumang Walk", "name": "Blk 315B", "public_transport": "platform", "route_ref": "382W", "lat": 1.4080168, "lon": 103.8959875}, "65451": {"@id": "node/3905803180", "asset_ref": "65451", "bench": "yes", "bus": "yes", "highway": "bus_stop", "location": "Sumang Walk", "name": "Blk 322 Carpark", "public_transport": "platform", "route_ref": "382G", "shelter": "yes", "wheelchair": "yes", "lat": 1.4107318, "lon": 103.8975557}, "65459": {"@id": "node/3905803181", "asset_ref": "65459", "bench": "yes", "bus": "yes", "highway": "bus_stop", "location": "Sumang Walk", "name": "Opposite Blk 322 Carpark", "public_transport": "platform", "route_ref": "382W", "shelter": "yes", "wheelchair": "yes", "lat": 1.4105725, "lon": 103.8977409}, "65461": {"@id": "node/3905803182", "asset_ref": "65461", "bench": "yes", "bus": "yes", "highway": "bus_stop", "location": "Sumang Link", "name": "Blk 312 Carpark", "public_transport": "platform", "route_ref": "382G", "shelter": "yes", "lat": 1.4098921, "lon": 103.9013404}, "65469": {"@id": "node/3905803183", "asset_ref": "65469", "bench": "yes", "bus": "yes", "highway": "bus_stop", "location": "Sumang Link", "name": "Blk 310B", "public_transport": "platform", "route_ref": "382W", "shelter": "yes", "lat": 1.4098515, "lon": 103.9009786}, "65481": {"@id": "node/3905803184", "asset_ref": "65481", "bench": "yes", "bus": "yes", "highway": "bus_stop", "location": "Sentul Cresent", "name": "Before Punggol Drive", "public_transport": "platform", "route_ref": "382G", "shelter": "yes", "lat": 1.4088787, "lon": 103.9062063}, "65489": {"@id": "node/3905803185", "asset_ref": "65489", "bench": "yes", "bus": "yes", "highway": "bus_stop", "location": "Sentul Cresent", "name": "After Punggol Drive", "public_transport": "platform", "route_ref": "382W", "shelter": "yes", "lat": 1.408261, "lon": 103.9056944}, "65529": {"@id": "node/4426007103", "asset_ref": "65529", "bus": "yes", "highway": "bus_stop", "location": "Punggol East", "name": "After Punggol Field", "public_transport": "platform", "route_ref": "50;62;62A;85", "lat": 1.3914883, "lon": 103.9142797}, "65371": {"@id": "node/4426007123", "asset_ref": "65371", "highway": "bus_stop", "location": "Edgedale Plains", "name": "Blk 682A", "route_ref": "386", "lat": 1.4029162, "lon": 103.9161895}, "65521": {"@id": "node/4426007435", "asset_ref": "65521", "bus": "yes", "highway": "bus_stop", "location": "Punggol East", "name": "Waterwoods", "public_transport": "platform", "route_ref": "50;62;85", "lat": 1.3903418, "lon": 103.9128944}, "67339": {"@id": "node/4516810247", "asset_ref": "67339", "bus": "yes", "highway": "bus_stop", "location": "Sengkang East Avenue", "name": "Opposite Blk 200B", "public_transport": "platform", "route_ref": "163;163M", "lat": 1.3870493, "lon": 103.8929175}, "65531": {"@id": "node/4664809496", "asset_ref": "65531", "bench": "yes", "highway": "bus_stop", "name": "Block 226A", "network": "Punggol Feeder Bus", "operator": "Go-Ahead Transit", "shelter": "yes", "source": "https://www.lta.gov.sg/data/apps/news/press/2017/20170111_Route_amendment_service_382.pdf", "lat": 1.402367, "lon": 103.8935666}, "65551": {"@id": "node/4664814528", "asset_ref": "65551", "bench": "yes", "highway": "bus_stop", "name": "Blk 227A", "operator": "Go-Ahead Transit", "shelter": "yes", "lat": 1.4037635, "lon": 103.8934202}, "65251": {"@id": "node/4928930141", "asset_ref": "65251", "highway": "bus_stop", "name": "Punggol Stn", "lat": 1.4051328, "lon": 103.9027777}, "67649": {"@id": "node/4973281146", "asset_ref": "67649", "highway": "bus_stop", "location": "Anchorvale Crescent", "name": "Aft Anchorvale Street", "route_ref": "374", "lat": 1.3980635, "lon": 103.8933476}, "67641": {"@id": "node/4973281147", "asset_ref": "67641", "highway": "bus_stop", "location": "Anchorvale Crescent", "name": "Bef Anchorvale Street", "route_ref": "374", "lat": 1.398001, "lon": 103.8934609}, "65049": {"@id": "node/5841392120", "asset_ref": "65049", "bus": "yes", "highway": "bus_stop", "location": "Punggol Road", "name": "Blk 126A", "public_transport": "platform", "route_ref": "6N;82;88;163;163M;372", "lat": 1.3899044, "lon": 103.9019336}, "65041": {"@id": "node/5841392121", "asset_ref": "65041", "bus": "yes", "highway": "bus_stop", "location": "Punggol Road", "name": "Blk 231", "public_transport": "platform", "route_ref": "6N;82;88;163;163M;372", "lat": 1.3899493, "lon": 103.901599}, "65619": {"@id": "node/5860554889", "asset_ref": "65619", "bench": "yes", "bus": "yes", "highway": "bus_stop", "location": "Sumang Link", "name": "Nibong Stn Exit A", "public_transport": "platform", "route_ref": "382W", "shelter": "yes", "lat": 1.4114906, "lon": 103.8999711}, "65611": {"@id": "node/5860554890", "asset_ref": "65611", "bench": "yes", "bus": "yes", "highway": "bus_stop", "location": "Sumang Link", "name": "Nibong Stn Exit B", "public_transport": "platform", "route_ref": "382W", "shelter": "yes", "lat": 1.4113545, "lon": 103.9003431}, "65629": {"@id": "node/5860554891", "asset_ref": "65629", "bench": "yes", "bus": "yes", "highway": "bus_stop", "location": "Sumang Link", "name": "Samudera Stn Exit A", "public_transport": "platform", "route_ref": "382W", "shelter": "yes", "lat": 1.4158105, "lon": 103.9018815}, "65621": {"@id": "node/5860554892", "asset_ref": "65621", "bench": "yes", "bus": "yes", "highway": "bus_stop", "location": "Sumang Link", "name": "Samudera Stn Exit B", "public_transport": "platform", "route_ref": "382W", "shelter": "yes", "lat": 1.4159298, "lon": 103.9024253}, "65639": {"@id": "node/5860554893", "asset_ref": "65639", "bench": "yes", "bus": "yes", "highway": "bus_stop", "location": "Sumang Link", "name": "Bef Punggol Pt Stn", "public_transport": "platform", "route_ref": "382W", "shelter": "yes", "lat": 1.4174695, "lon": 103.9055751}, "65631": {"@id": "node/5860554894", "asset_ref": "65631", "bench": "yes", "bus": "yes", "highway": "bus_stop", "location": "Sumang Link", "name": "Aft Punggol Pt Stn", "public_transport": "platform", "route_ref": "382W", "shelter": "yes", "lat": 1.4172094, "lon": 103.9055107}, "65571": {"@id": "node/6780513250", "asset_ref": "65571", "bench": "yes", "bus": "yes", "highway": "bus_stop", "location": "Sumang Walk", "name": "Blk 218", "public_transport": "platform", "route_ref": "382W", "shelter": "yes", "lat": 1.4034253, "lon": 103.8955797}, "65681": {"@id": "node/7270951323", "asset_ref": "65681", "bus": "yes", "highway": "bus_stop", "location": "Punggol Road", "name": "Before Northshore Crescent", "public_transport": "platform", "route_ref": "84", "lat": 1.4182297, "lon": 103.9080268}, "65671": {"@id": "node/7276194081", "asset_ref": "65671", "bench": "yes", "bus": "yes", "highway": "bus_stop", "location": "Sumang Link", "name": "Punggol Cove Pr Sch", "public_transport": "platform", "route_ref": "382G", "shelter": "yes", "lat": 1.4113084, "lon": 103.8986762}, "65679": {"@id": "node/7276194082", "asset_ref": "65679", "bench": "yes", "bus": "yes", "highway": "bus_stop", "location": "Sumang Link", "name": "Opp Punggol Cove Pr Sch", "public_transport": "platform", "route_ref": "382G", "shelter": "yes", "lat": 1.4109443, "lon": 103.8990257}, "65259": {"@id": "node/7314770844", "asset_ref": "65259", "highway": "bus_stop", "name": "Punggol Stn/Int", "lat": 1.4054627, "lon": 103.9015984}}